[{"city":"New York","country":"USA","state":"New York","latitude":40.7128,"longitude":-74.006,"nps":48,"responseCount":320,"csat":69,"ces":2.8,"surveyDate":"2024-01-01T04:00:00.000Z"},{"city":"Los Angeles","country":"USA","state":"California","latitude":34.0522,"longitude":-118.2437,"nps":42,"responseCount":210,"csat":67,"ces":3,"surveyDate":"2024-02-02T05:00:00.000Z"},{"city":"Chicago","country":"USA","state":"Illinois","latitude":41.8781,"longitude":-87.6298,"nps":50,"responseCount":180,"csat":72,"ces":2.7,"surveyDate":"2024-03-03T06:00:00.000Z"},{"city":"Toronto","country":"Canada","state":"Ontario","latitude":43.6532,"longitude":-79.3832,"nps":55,"responseCount":150,"csat":75,"ces":2.5,"surveyDate":"2024-04-04T07:00:00.000Z"},{"city":"Vancouver","country":"Canada","state":"British Columbia","latitude":49.2827,"longitude":-123.1207,"nps":60,"responseCount":90,"csat":78,"ces":2.4,"surveyDate":"2024-05-05T08:00:00.000Z"},{"city":"Mexico City","country":"Mexico","latitude":19.4326,"longitude":-99.1332,"nps":38,"responseCount":250,"csat":69,"ces":3.1,"surveyDate":"2024-06-06T09:00:00.000Z"},{"city":"São Paulo","country":"Brazil","latitude":-23.5505,"longitude":-46.6333,"nps":41,"responseCount":220,"csat":71,"ces":3,"surveyDate":"2024-07-07T10:00:00.000Z"},{"city":"Buenos Aires","country":"Argentina","latitude":-34.6037,"longitude":-58.3816,"nps":47,"responseCount":140,"csat":68,"ces":2.8,"surveyDate":"2024-08-08T11:00:00.000Z"},{"city":"London","country":"UK","latitude":51.5074,"longitude":-0.1278,"nps":53,"responseCount":300,"csat":72,"ces":2.6,"surveyDate":"2024-09-09T04:00:00.000Z"},{"city":"Manchester","country":"UK","latitude":53.4808,"longitude":-2.2426,"nps":49,"responseCount":120,"csat":71,"ces":2.8,"surveyDate":"2024-10-10T05:00:00.000Z"},{"city":"Berlin","country":"Germany","latitude":52.52,"longitude":13.405,"nps":58,"responseCount":170,"csat":76,"ces":2.4,"surveyDate":"2024-11-11T06:00:00.000Z"},{"city":"Munich","country":"Germany","latitude":48.1351,"longitude":11.582,"nps":62,"responseCount":95,"csat":79,"ces":2.3,"surveyDate":"2024-12-12T07:00:00.000Z"},{"city":"Madrid","country":"Spain","latitude":40.4168,"longitude":-3.7038,"nps":44,"responseCount":160,"csat":72,"ces":2.9,"surveyDate":"2024-01-13T08:00:00.000Z"},{"city":"Barcelona","country":"Spain","latitude":41.3851,"longitude":2.1734,"nps":51,"responseCount":130,"csat":76,"ces":2.7,"surveyDate":"2024-02-14T09:00:00.000Z"},{"city":"Rome","country":"Italy","latitude":41.9028,"longitude":12.4964,"nps":39,"responseCount":175,"csat":65,"ces":3.1,"surveyDate":"2024-03-15T10:00:00.000Z"},{"city":"Milan","country":"Italy","latitude":45.4642,"longitude":9.19,"nps":46,"responseCount":110,"csat":69,"ces":2.9,"surveyDate":"2024-04-16T11:00:00.000Z"},{"city":"Paris","country":"France","latitude":48.8566,"longitude":2.3522,"nps":57,"responseCount":260,"csat":75,"ces":2.5,"surveyDate":"2024-05-17T04:00:00.000Z"},{"city":"Lyon","country":"France","state":"Auvergne-Rhône-Alpes","latitude":45.764,"longitude":4.8357,"nps":54,"responseCount":100,"csat":74,"ces":2.6,"surveyDate":"2024-06-18T05:00:00.000Z"},{"city":"Amsterdam","country":"Netherlands","latitude":52.3676,"longitude":4.9041,"nps":63,"responseCount":115,"csat":79,"ces":2.3,"surveyDate":"2024-07-19T06:00:00.000Z"},{"city":"Brussels","country":"Belgium","latitude":50.8503,"longitude":4.3517,"nps":50,"responseCount":90,"csat":75,"ces":2.7,"surveyDate":"2024-08-20T07:00:00.000Z"},{"city":"Zurich","country":"Switzerland","latitude":47.3769,"longitude":8.5417,"nps":70,"responseCount":85,"csat":85,"ces":2,"surveyDate":"2024-09-21T08:00:00.000Z"},{"city":"Vienna","country":"Austria","latitude":48.2082,"longitude":16.3738,"nps":65,"responseCount":95,"csat":76,"ces":2.2,"surveyDate":"2024-10-22T09:00:00.000Z"},{"city":"Prague","country":"Czech Republic","latitude":50.0755,"longitude":14.4378,"nps":56,"responseCount":88,"csat":73,"ces":2.5,"surveyDate":"2024-11-23T10:00:00.000Z"},{"city":"Warsaw","country":"Poland","latitude":52.2297,"longitude":21.0122,"nps":45,"responseCount":105,"csat":69,"ces":2.9,"surveyDate":"2024-12-24T11:00:00.000Z"},{"city":"Stockholm","country":"Sweden","latitude":59.3293,"longitude":18.0686,"nps":68,"responseCount":75,"csat":81,"ces":2.1,"surveyDate":"2024-01-25T04:00:00.000Z"},{"city":"Oslo","country":"Norway","latitude":59.9139,"longitude":10.7522,"nps":72,"responseCount":60,"csat":83,"ces":1.9,"surveyDate":"2024-02-26T05:00:00.000Z"},{"city":"Helsinki","country":"Finland","latitude":60.1699,"longitude":24.9384,"nps":69,"responseCount":55,"csat":83,"ces":2,"surveyDate":"2024-03-27T06:00:00.000Z"},{"city":"Copenhagen","country":"Denmark","latitude":55.6761,"longitude":12.5683,"nps":66,"responseCount":65,"csat":83,"ces":2.1,"surveyDate":"2024-04-28T07:00:00.000Z"},{"city":"Dublin","country":"Ireland","latitude":53.3498,"longitude":-6.2603,"nps":52,"responseCount":80,"csat":70,"ces":2.6,"surveyDate":"2024-05-01T08:00:00.000Z"},{"city":"Lisbon","country":"Portugal","latitude":38.7223,"longitude":-9.1393,"nps":48,"responseCount":92,"csat":70,"ces":2.8,"surveyDate":"2024-06-02T09:00:00.000Z"},{"city":"Moscow","country":"Russia","latitude":55.7558,"longitude":37.6173,"nps":40,"responseCount":210,"csat":67,"ces":3.1,"surveyDate":"2024-07-03T10:00:00.000Z"},{"city":"Istanbul","country":"Turkey","latitude":41.0082,"longitude":28.9784,"nps":43,"responseCount":185,"csat":69,"ces":3,"surveyDate":"2024-08-04T11:00:00.000Z"},{"city":"Dubai","country":"UAE","latitude":25.2048,"longitude":55.2708,"nps":64,"responseCount":140,"csat":80,"ces":2.2,"surveyDate":"2024-09-05T04:00:00.000Z"},{"city":"Riyadh","country":"Saudi Arabia","latitude":24.7136,"longitude":46.6753,"nps":58,"responseCount":120,"csat":78,"ces":2.4,"surveyDate":"2024-10-06T05:00:00.000Z"},{"city":"Doha","country":"Qatar","latitude":25.2854,"longitude":51.531,"nps":61,"responseCount":75,"csat":80,"ces":2.3,"surveyDate":"2024-11-07T06:00:00.000Z"},{"city":"Cairo","country":"Egypt","latitude":30.0444,"longitude":31.2357,"nps":35,"responseCount":200,"csat":63,"ces":3.3,"surveyDate":"2024-12-08T07:00:00.000Z"},{"city":"Johannesburg","country":"South Africa","latitude":-26.2041,"longitude":28.0473,"nps":44,"responseCount":150,"csat":68,"ces":2.9,"surveyDate":"2024-01-09T08:00:00.000Z"},{"city":"Cape Town","country":"South Africa","latitude":-33.9249,"longitude":18.4241,"nps":59,"responseCount":100,"csat":76,"ces":2.4,"surveyDate":"2024-02-10T09:00:00.000Z"},{"city":"Nairobi","country":"Kenya","latitude":-1.2921,"longitude":36.8219,"nps":46,"responseCount":90,"csat":71,"ces":2.9,"surveyDate":"2024-03-11T10:00:00.000Z"},{"city":"Lagos","country":"Nigeria","latitude":6.5244,"longitude":3.3792,"nps":37,"responseCount":175,"csat":68,"ces":3.2,"surveyDate":"2024-04-12T11:00:00.000Z"},{"city":"Mumbai","country":"India","state":"Maharashtra","latitude":19.076,"longitude":72.8777,"nps":49,"responseCount":400,"csat":74,"ces":2.8,"surveyDate":"2024-05-13T04:00:00.000Z"},{"city":"Delhi","country":"India","latitude":28.7041,"longitude":77.1025,"nps":45,"responseCount":380,"csat":73,"ces":2.9,"surveyDate":"2024-06-14T05:00:00.000Z"},{"city":"Bangalore","country":"India","state":"Karnataka","latitude":12.9716,"longitude":77.5946,"nps":56,"responseCount":310,"csat":72,"ces":2.5,"surveyDate":"2024-07-15T06:00:00.000Z"},{"city":"Hyderabad","country":"India","state":"Telangana","latitude":17.385,"longitude":78.4867,"nps":53,"responseCount":250,"csat":72,"ces":2.6,"surveyDate":"2024-08-16T07:00:00.000Z"},{"city":"Chennai","country":"India","state":"Tamil Nadu","latitude":13.0827,"longitude":80.2707,"nps":51,"responseCount":230,"csat":72,"ces":2.7,"surveyDate":"2024-09-17T08:00:00.000Z"},{"city":"Kolkata","country":"India","state":"West Bengal","latitude":22.5726,"longitude":88.3639,"nps":47,"responseCount":200,"csat":71,"ces":2.8,"surveyDate":"2024-10-18T09:00:00.000Z"},{"city":"Pune","country":"India","state":"Maharashtra","latitude":18.5204,"longitude":73.8567,"nps":58,"responseCount":170,"csat":77,"ces":2.4,"surveyDate":"2024-11-19T10:00:00.000Z"},{"city":"Ahmedabad","country":"India","state":"Gujarat","latitude":23.0225,"longitude":72.5714,"nps":54,"responseCount":160,"csat":76,"ces":2.6,"surveyDate":"2024-12-20T11:00:00.000Z"},{"city":"Jaipur","country":"India","state":"Rajasthan","latitude":26.9124,"longitude":75.7873,"nps":50,"responseCount":120,"csat":76,"ces":2.7,"surveyDate":"2024-01-21T04:00:00.000Z"},{"city":"Lucknow","country":"India","state":"Uttar Pradesh","latitude":26.8467,"longitude":80.9462,"nps":48,"responseCount":110,"csat":69,"ces":2.8,"surveyDate":"2024-02-22T05:00:00.000Z"},{"city":"Beijing","country":"China","latitude":39.9042,"longitude":116.4074,"nps":52,"responseCount":300,"csat":71,"ces":2.6,"surveyDate":"2024-03-23T06:00:00.000Z"},{"city":"Shanghai","country":"China","latitude":31.2304,"longitude":121.4737,"nps":55,"responseCount":280,"csat":74,"ces":2.5,"surveyDate":"2024-04-24T07:00:00.000Z"},{"city":"Tokyo","country":"Japan","latitude":35.6762,"longitude":139.6503,"nps":67,"responseCount":260,"csat":80,"ces":2.1,"surveyDate":"2024-05-25T08:00:00.000Z"},{"city":"Osaka","country":"Japan","latitude":34.6937,"longitude":135.5023,"nps":63,"responseCount":150,"csat":79,"ces":2.3,"surveyDate":"2024-06-26T09:00:00.000Z"},{"city":"Seoul","country":"South Korea","latitude":37.5665,"longitude":126.978,"nps":61,"responseCount":190,"csat":79,"ces":2.3,"surveyDate":"2024-07-27T10:00:00.000Z"},{"city":"Bangkok","country":"Thailand","latitude":13.7563,"longitude":100.5018,"nps":49,"responseCount":170,"csat":75,"ces":2.8,"surveyDate":"2024-08-28T11:00:00.000Z"},{"city":"Singapore","country":"Singapore","latitude":1.3521,"longitude":103.8198,"nps":74,"responseCount":130,"csat":80,"ces":1.9,"surveyDate":"2024-09-01T04:00:00.000Z"},{"city":"Kuala Lumpur","country":"Malaysia","latitude":3.139,"longitude":101.6869,"nps":57,"responseCount":140,"csat":74,"ces":2.5,"surveyDate":"2024-10-02T05:00:00.000Z"},{"city":"Jakarta","country":"Indonesia","latitude":-6.2088,"longitude":106.8456,"nps":43,"responseCount":210,"csat":68,"ces":3,"surveyDate":"2024-11-03T06:00:00.000Z"},{"city":"Manila","country":"Philippines","latitude":14.5995,"longitude":120.9842,"nps":41,"responseCount":180,"csat":68,"ces":3,"surveyDate":"2024-12-04T07:00:00.000Z"},{"city":"Sydney","country":"Australia","state":"New South Wales","latitude":-33.8688,"longitude":151.2093,"nps":66,"responseCount":160,"csat":81,"ces":2.1,"surveyDate":"2024-01-05T08:00:00.000Z"},{"city":"Melbourne","country":"Australia","state":"Victoria","latitude":-37.8136,"longitude":144.9631,"nps":64,"responseCount":140,"csat":81,"ces":2.2,"surveyDate":"2024-02-06T09:00:00.000Z"},{"city":"Auckland","country":"New Zealand","latitude":-36.8485,"longitude":174.7633,"nps":69,"responseCount":85,"csat":84,"ces":2,"surveyDate":"2024-03-07T10:00:00.000Z"},{"city":"Athens","country":"Greece","latitude":37.9838,"longitude":23.7275,"nps":45,"responseCount":95,"csat":67,"ces":2.9,"surveyDate":"2024-04-08T11:00:00.000Z"},{"city":"Budapest","country":"Hungary","latitude":47.4979,"longitude":19.0402,"nps":50,"responseCount":88,"csat":71,"ces":2.7,"surveyDate":"2024-05-09T04:00:00.000Z"},{"city":"Bucharest","country":"Romania","latitude":44.4268,"longitude":26.1025,"nps":42,"responseCount":92,"csat":68,"ces":3,"surveyDate":"2024-06-10T05:00:00.000Z"},{"city":"Sofia","country":"Bulgaria","latitude":42.6977,"longitude":23.3219,"nps":44,"responseCount":70,"csat":70,"ces":2.9,"surveyDate":"2024-07-11T06:00:00.000Z"},{"city":"Belgrade","country":"Serbia","latitude":44.7866,"longitude":20.4489,"nps":46,"responseCount":65,"csat":72,"ces":2.9,"surveyDate":"2024-08-12T07:00:00.000Z"},{"city":"Zagreb","country":"Croatia","latitude":45.815,"longitude":15.9819,"nps":55,"responseCount":60,"csat":77,"ces":2.5,"surveyDate":"2024-09-13T08:00:00.000Z"},{"city":"Ljubljana","country":"Slovenia","latitude":46.0569,"longitude":14.5058,"nps":62,"responseCount":50,"csat":81,"ces":2.3,"surveyDate":"2024-10-14T09:00:00.000Z"},{"city":"Reykjavik","country":"Iceland","latitude":64.1466,"longitude":-21.9426,"nps":75,"responseCount":30,"csat":81,"ces":1.8,"surveyDate":"2024-11-15T10:00:00.000Z"},{"city":"Lima","country":"Peru","latitude":-12.0464,"longitude":-77.0428,"nps":40,"responseCount":130,"csat":66,"ces":3.1,"surveyDate":"2024-12-16T11:00:00.000Z"},{"city":"Bogotá","country":"Colombia","latitude":4.711,"longitude":-74.0721,"nps":43,"responseCount":150,"csat":68,"ces":3,"surveyDate":"2024-01-17T04:00:00.000Z"},{"city":"Santiago","country":"Chile","latitude":-33.4489,"longitude":-70.6693,"nps":52,"responseCount":120,"csat":73,"ces":2.6,"surveyDate":"2024-02-18T05:00:00.000Z"},{"city":"Caracas","country":"Venezuela","latitude":10.4806,"longitude":-66.9036,"nps":30,"responseCount":100,"csat":65,"ces":3.4,"surveyDate":"2024-03-19T06:00:00.000Z"},{"city":"Quito","country":"Ecuador","latitude":-0.1807,"longitude":-78.4678,"nps":47,"responseCount":85,"csat":73,"ces":2.8,"surveyDate":"2024-04-20T07:00:00.000Z"},{"city":"Casablanca","country":"Morocco","latitude":33.5731,"longitude":-7.5898,"nps":45,"responseCount":90,"csat":73,"ces":2.9,"surveyDate":"2024-05-21T08:00:00.000Z"},{"city":"Algiers","country":"Algeria","latitude":36.7538,"longitude":3.0588,"nps":38,"responseCount":95,"csat":64,"ces":3.1,"surveyDate":"2024-06-22T09:00:00.000Z"},{"city":"Tunis","country":"Tunisia","latitude":36.8065,"longitude":10.1815,"nps":48,"responseCount":70,"csat":70,"ces":2.8,"surveyDate":"2024-07-23T10:00:00.000Z"},{"city":"Addis Ababa","country":"Ethiopia","latitude":8.9806,"longitude":38.7578,"nps":44,"responseCount":85,"csat":69,"ces":2.9,"surveyDate":"2024-08-24T11:00:00.000Z"},{"city":"Accra","country":"Ghana","latitude":5.6037,"longitude":-0.187,"nps":50,"responseCount":75,"csat":73,"ces":2.7,"surveyDate":"2024-09-25T04:00:00.000Z"},{"city":"Tehran","country":"Iran","latitude":35.6892,"longitude":51.389,"nps":39,"responseCount":160,"csat":69,"ces":3.1,"surveyDate":"2024-10-26T05:00:00.000Z"},{"city":"Baghdad","country":"Iraq","latitude":33.3152,"longitude":44.3661,"nps":32,"responseCount":140,"csat":66,"ces":3.4,"surveyDate":"2024-11-27T06:00:00.000Z"},{"city":"Karachi","country":"Pakistan","latitude":24.8607,"longitude":67.0011,"nps":41,"responseCount":220,"csat":71,"ces":3,"surveyDate":"2024-12-28T07:00:00.000Z"},{"city":"Dhaka","country":"Bangladesh","latitude":23.8103,"longitude":90.4125,"nps":36,"responseCount":210,"csat":63,"ces":3.2,"surveyDate":"2024-01-01T08:00:00.000Z"},{"city":"Kathmandu","country":"Nepal","latitude":27.7172,"longitude":85.324,"nps":49,"responseCount":60,"csat":70,"ces":2.8,"surveyDate":"2024-02-02T09:00:00.000Z"},{"city":"Hanoi","country":"Vietnam","latitude":21.0278,"longitude":105.8342,"nps":54,"responseCount":120,"csat":73,"ces":2.6,"surveyDate":"2024-03-03T10:00:00.000Z"},{"city":"Ho Chi Minh City","country":"Vietnam","latitude":10.8231,"longitude":106.6297,"nps":56,"responseCount":140,"csat":75,"ces":2.5,"surveyDate":"2024-04-04T11:00:00.000Z"},{"city":"Taipei","country":"Taiwan","latitude":25.033,"longitude":121.5654,"nps":65,"responseCount":100,"csat":80,"ces":2.2,"surveyDate":"2024-05-05T04:00:00.000Z"},{"city":"Hong Kong","country":"China","latitude":22.3193,"longitude":114.1694,"nps":60,"responseCount":150,"csat":79,"ces":2.4,"surveyDate":"2024-06-06T05:00:00.000Z"},{"city":"Ulaanbaatar","country":"Mongolia","latitude":47.8864,"longitude":106.9057,"nps":51,"responseCount":40,"csat":76,"ces":2.7,"surveyDate":"2024-07-07T06:00:00.000Z"}]